stop_id,stop_code,stop_name,stop_desc,stop_lat,stop_lon,zone_id,stop_url,location_type,parent_station,platform_code
750000,750000,"Cedar Rd at Coral Coast Drive (Palm Cove)",, -16.743585, 145.668207,5,https://translink.com.au/stop/750000/gtfs/,0,,
750001,750001,"Williams Esplanade at Caryota St",, -16.744104, 145.671100,5,https://translink.com.au/stop/750001/gtfs/,0,,
750002,750002,"Veivers Road at Talpa Close",, -16.749260, 145.667899,5,https://translink.com.au/stop/750002/gtfs/,0,,
750003,750003,"Veivers Road at Capt Cook Highway",, -16.748213, 145.663659,5,https://translink.com.au/stop/750003/gtfs/,0,,
750004,750004,"Captain Cook Hwy at Alexandra Street",, -16.758023, 145.663351,5,https://translink.com.au/stop/750004/gtfs/,0,,
750005,750005,"Endeavour Rd at Elford Street",, -16.763984, 145.667889,5,https://translink.com.au/stop/750005/gtfs/,0,,
750006,750006,"Endeavour Road at Haycock Street",, -16.762734, 145.669390,5,https://translink.com.au/stop/750006/gtfs/,0,,
750007,750007,"Endeavour Rd at Upolu Esplanade",, -16.761302, 145.672832,5,https://translink.com.au/stop/750007/gtfs/,0,,
750008,750008,"Arlington Esp near Upolu Esp hail 'n' ride",, -16.764331, 145.675445,5,https://translink.com.au/stop/750008/gtfs/,0,,
750009,750009,"Arlington Esplanade at Clifton Rd",, -16.767400, 145.677060,5,https://translink.com.au/stop/750009/gtfs/,0,,
750010,750010,"Clifton Road at Guide Street",, -16.769045, 145.675490,5,https://translink.com.au/stop/750010/gtfs/,0,,
750011,750011,"Clifton Rd at Capt Cook Highway",, -16.771944, 145.674683,5,https://translink.com.au/stop/750011/gtfs/,0,,
750013,750013,"Cottesloe Dr at Daytona St (Kewarra Beach)",, -16.790693, 145.680651,4,https://translink.com.au/stop/750013/gtfs/,0,,
750014,750014,"Poolwood Rd at Miami Road",, -16.787775, 145.685217,4,https://translink.com.au/stop/750014/gtfs/,0,,
750015,750015,"Captain Cook Hwy at Poolwood Road",, -16.794739, 145.680837,4,https://translink.com.au/stop/750015/gtfs/,0,,
750016,750016,"Trinity Beach Rd at Madang Street",, -16.795739, 145.687593,4,https://translink.com.au/stop/750016/gtfs/,0,,
750017,750017,"Trinity Beach Rd at Periwinkle Avenue",, -16.790490, 145.690847,4,https://translink.com.au/stop/750017/gtfs/,0,,
750018,750018,"Trinity Beach Rd at Vasey Street",, -16.785490, 145.698915,4,https://translink.com.au/stop/750018/gtfs/,0,,
750019,750019,"Trinity Beach Rd at Petersen Street",, -16.787513, 145.696737,4,https://translink.com.au/stop/750019/gtfs/,0,,
750020,750020,"Anderson St at Lae Street",, -16.789012, 145.696319,4,https://translink.com.au/stop/750020/gtfs/,0,,
750021,750021,"Madang St at Kokoda Street",, -16.793650, 145.691100,4,https://translink.com.au/stop/750021/gtfs/,0,,
750022,750022,"Trinity Beach Rd at Madang St",, -16.795198, 145.687783,4,https://translink.com.au/stop/750022/gtfs/,0,,
750024,750024,"Madang St at Rabaul Street",, -16.793503, 145.692765,4,https://translink.com.au/stop/750024/gtfs/,0,,
750025,750025,"Moresby St at Saidor Close",, -16.793080, 145.695058,4,https://translink.com.au/stop/750025/gtfs/,0,,
750026,750026,"Moresby St at Anderson Street",, -16.791287, 145.696453,4,https://translink.com.au/stop/750026/gtfs/,0,,
750027,750027,"Trinity Beach Rd at Rabaul Street",, -16.790322, 145.691820,4,https://translink.com.au/stop/750027/gtfs/,0,,
750028,750028,"Captain Cook Hwy at Discovery Drive",, -16.794958, 145.680579,4,https://translink.com.au/stop/750028/gtfs/,0,,
750029,750029,"Poolwood Rd at Mahab Street",, -16.784346, 145.689353,4,https://translink.com.au/stop/750029/gtfs/,0,,
750030,750030,"Albatross St at Wagtail Close",, -16.779092, 145.683354,4,https://translink.com.au/stop/750030/gtfs/,0,,
750031,750031,"Gannet St at Manly Close",, -16.783177, 145.682836,4,https://translink.com.au/stop/750031/gtfs/,0,,
750032,750032,"Gannet St at Coolangatta Close",, -16.784719, 145.678907,4,https://translink.com.au/stop/750032/gtfs/,0,,
750035,750035,"Clifton Road at Capt Cook Highway",, -16.771210, 145.674786,5,https://translink.com.au/stop/750035/gtfs/,0,,
750036,750036,"Endeavour Road at Saxon Street",, -16.762756, 145.669799,5,https://translink.com.au/stop/750036/gtfs/,0,,
750037,750037,"Endeavour Rd at Capt Cook Highway",, -16.764210, 145.667943,5,https://translink.com.au/stop/750037/gtfs/,0,,
750038,750038,"Captain Cook Hwy at Alexandra Street",, -16.758329, 145.663264,5,https://translink.com.au/stop/750038/gtfs/,0,,
750039,750039,"Williams Esplanade at French Street",, -16.744080, 145.671029,5,https://translink.com.au/stop/750039/gtfs/,0,,
750040,750040,"Cedar Rd at Coral Coast Drive (Palm Cove)",, -16.743567, 145.668423,5,https://translink.com.au/stop/750040/gtfs/,0,,
750041,750041,"Captain Cook Hwy at Aropa Street",, -16.805675, 145.690823,4,https://translink.com.au/stop/750041/gtfs/,0,,
750042,750042,"Captain Cook Highway (Smithfield)",, -16.815868, 145.693631,3,https://translink.com.au/stop/750042/gtfs/,0,,
750043,750043,"Captain Cook Highway (Smithfield)",, -16.817430, 145.693043,3,https://translink.com.au/stop/750043/gtfs/,0,,
750044,750044,"Reed Rd at Centaur Street",, -16.804795, 145.701699,3,https://translink.com.au/stop/750044/gtfs/,0,,
750045,750045,"Cheviot St at Leisure Pk Road (Smithfield SHS)",, -16.815150, 145.693970,3,https://translink.com.au/stop/750045/gtfs/,0,,
750046,750046,"McGregor Road at Faculty Close",, -16.821066, 145.694016,3,https://translink.com.au/stop/750046/gtfs/,0,,
750048,750048,"Lydia Street at Anne Street",, -16.824283, 145.686551,3,https://translink.com.au/stop/750048/gtfs/,0,,
750049,750049,"Gavin St at Stanton Street",, -16.831029, 145.690256,3,https://translink.com.au/stop/750049/gtfs/,0,,
750050,750050,"Stanton Rd at Survey Street",, -16.831522, 145.691298,3,https://translink.com.au/stop/750050/gtfs/,0,,
750051,750051,"McGregor Road at Faculty Close",, -16.820835, 145.694303,3,https://translink.com.au/stop/750051/gtfs/,0,,
750052,750052,"Captain Cook Hwy (Smithfield) hail 'n' ride",, -16.825874, 145.692418,3,https://translink.com.au/stop/750052/gtfs/,0,,
750053,750053,"Smithfield Shopping Centre (Cattana Rd)",, -16.834852, 145.692217,3,https://translink.com.au/stop/750053/gtfs/,0,,
750054,750054,"Mt Milman Dr at Danbulan Street",, -16.837279, 145.695245,3,https://translink.com.au/stop/750054/gtfs/,0,,
750055,750055,"Varley St at Nancy Street",, -16.817835, 145.720065,3,https://translink.com.au/stop/750055/gtfs/,0,,
750056,750056,"Varley Street at Daisy Street",, -16.812218, 145.720692,3,https://translink.com.au/stop/750056/gtfs/,0,,
750057,750057,"Varley St at Hesp Street",, -16.808059, 145.721199,3,https://translink.com.au/stop/750057/gtfs/,0,,
750058,750058,"Varley St at Adair Street",, -16.805500, 145.721523,3,https://translink.com.au/stop/750058/gtfs/,0,,
750059,750059,"Sims Esp at Adair Street",, -16.805849, 145.724553,3,https://translink.com.au/stop/750059/gtfs/,0,,
750060,750060,"Sims Esp at Rutherford Street",, -16.808318, 145.725868,3,https://translink.com.au/stop/750060/gtfs/,0,,
750061,750061,"Wattle St at Fairweather Street",, -16.810618, 145.723310,3,https://translink.com.au/stop/750061/gtfs/,0,,
750062,750062,"Varley St at Daisy Street",, -16.811202, 145.721042,3,https://translink.com.au/stop/750062/gtfs/,0,,
750063,750063,"Varley St at Grason Street",, -16.813945, 145.720701,3,https://translink.com.au/stop/750063/gtfs/,0,,
750064,750064,"Varley St at Carolyn Close",, -16.816613, 145.720451,3,https://translink.com.au/stop/750064/gtfs/,0,,
750065,750065,"Oleander St at Bamboo Street",, -16.840024, 145.739659,2,https://translink.com.au/stop/750065/gtfs/,0,,
750066,750066,"Oleander St at Poinciana Street",, -16.839922, 145.739834,2,https://translink.com.au/stop/750066/gtfs/,0,,
750067,750067,"Oleander St at Tamarind Street",, -16.843537, 145.739411,2,https://translink.com.au/stop/750067/gtfs/,0,,
750068,750068,"Oleander St at Hickory St",, -16.846644, 145.739028,2,https://translink.com.au/stop/750068/gtfs/,0,,
750069,750069,"Holloway Beach Rd at Moonah St",, -16.851422, 145.736117,2,https://translink.com.au/stop/750069/gtfs/,0,,
750070,750070,"Prior St at Phillips St",, -16.850697, 145.746964,2,https://translink.com.au/stop/750070/gtfs/,0,,
750071,750071,"Christensen St at Machans St (Machans Beach SS)",, -16.852604, 145.745683,2,https://translink.com.au/stop/750071/gtfs/,0,,
750072,750072,"Machans Beach Access Rd",, -16.855199, 145.742480,2,https://translink.com.au/stop/750072/gtfs/,0,,
750075,750075,"Brinsmead Kamerunga Road at Skyrail Base Station",, -16.848133, 145.695279,3,https://translink.com.au/stop/750075/gtfs/,0,,
750077,750077,"Impey St at Lake Placid Road",, -16.871093, 145.680893,3,https://translink.com.au/stop/750077/gtfs/,0,,
750078,750078,"Lake Placid Rd at Brinsmead Kamerunga Rd",, -16.868431, 145.686041,3,https://translink.com.au/stop/750078/gtfs/,0,,
750079,750079,"Cairns Western Arterial at Harley Street",, -16.879794, 145.690026,2,https://translink.com.au/stop/750079/gtfs/,0,,
750080,750080,"Michaelangelo Dr near Cyperus Dr hail 'n' ride",, -16.903773, 145.697851,2,https://translink.com.au/stop/750080/gtfs/,0,,
750081,750081,"Michaelangelo Dr at Jasmine Street",, -16.904417, 145.695363,2,https://translink.com.au/stop/750081/gtfs/,0,,
750082,750082,"Michaelangelo Dr at Ebony Street",, -16.906744, 145.692933,2,https://translink.com.au/stop/750082/gtfs/,0,,
750083,750083,"Michaelangelo Dr at Jasmine Street",, -16.904246, 145.695292,2,https://translink.com.au/stop/750083/gtfs/,0,,
750084,750084,"Michaelangelo Dr near Cyperus Dr hail 'n' ride",, -16.903596, 145.697490,2,https://translink.com.au/stop/750084/gtfs/,0,,
750086,750086,"Redlynch Intake Rd at Short Street",, -16.889180, 145.696284,2,https://translink.com.au/stop/750086/gtfs/,0,,
750087,750087,"Brinsmead Kamerunga Rd (Redlynch Railway Station)",, -16.887167, 145.696567,2,https://translink.com.au/stop/750087/gtfs/,0,,
750088,750088,"Kamerunga Road at Ryan Weare Park",, -16.884988, 145.704915,2,https://translink.com.au/stop/750088/gtfs/,0,,
750089,750089,"Kamerunga Rd at Freshwater Rd",, -16.881789, 145.708673,2,https://translink.com.au/stop/750089/gtfs/,0,,
750090,750090,"Lavis Rd at Valley Street",, -16.881363, 145.711122,2,https://translink.com.au/stop/750090/gtfs/,0,,
750091,750091,"Old Smithfield Rd at Le Grande St",, -16.882164, 145.712403,2,https://translink.com.au/stop/750091/gtfs/,0,,
750092,750092,"Old Smithfield Rd at Freshwater School",, -16.880961, 145.715170,2,https://translink.com.au/stop/750092/gtfs/,0,,
750093,750093,"Old Smithfield Rd at Cassowary Street",, -16.878962, 145.716577,2,https://translink.com.au/stop/750093/gtfs/,0,,
750094,750094,"Kamerunga Rd at Old Smithfield Road",, -16.877293, 145.716895,2,https://translink.com.au/stop/750094/gtfs/,0,,
750095,750095,"Kamerunga Rd at Passchendaele St",, -16.876398, 145.723550,2,https://translink.com.au/stop/750095/gtfs/,0,,
750096,750096,"Kamerunga Rd at Hardwick Street",, -16.875651, 145.727900,2,https://translink.com.au/stop/750096/gtfs/,0,,
750098,750098,"Kamerunga Rd at Stratford Parade",, -16.875346, 145.732697,2,https://translink.com.au/stop/750098/gtfs/,0,,
750099,750099,"Stratford Pde at Aeroglen Drive",, -16.875005, 145.736193,2,https://translink.com.au/stop/750099/gtfs/,0,,
750100,750100,"Aeroglen Dr at Stratford Parade",, -16.876245, 145.741499,2,https://translink.com.au/stop/750100/gtfs/,0,,
750101,750101,"Aeroglen Dr at Whitfield Street",, -16.882860, 145.745763,1,https://translink.com.au/stop/750101/gtfs/,0,,
750102,750102,"Aeroglen Dr at Palmerston Street",, -16.885814, 145.747682,1,https://translink.com.au/stop/750102/gtfs/,0,,
750103,750103,"Sheridan St at Rutherford Street",, -16.900082, 145.756073,1,https://translink.com.au/stop/750103/gtfs/,0,,
750104,750104,"Sheridan St at Rutherford Street",, -16.902017, 145.756958,1,https://translink.com.au/stop/750104/gtfs/,0,,
750105,750105,"Sheridan St at Lily St (Tobruk Pool)",, -16.903471, 145.757990,1,https://translink.com.au/stop/750105/gtfs/,0,,
750106,750106,"Sheridan St at Smith Street",, -16.906144, 145.759649,1,https://translink.com.au/stop/750106/gtfs/,0,,
750107,750107,"Sheridan St at McKenzie Street",, -16.908558, 145.761284,1,https://translink.com.au/stop/750107/gtfs/,0,,
750108,750108,"Sheridan St at McKenzie Street",, -16.910311, 145.762581,1,https://translink.com.au/stop/750108/gtfs/,0,,
750109,750109,"Sheridan St at Charles St",, -16.912504, 145.764187,1,https://translink.com.au/stop/750109/gtfs/,0,,
750136,750136,"Sheridan St at Grove Street",, -16.913332, 145.764469,1,https://translink.com.au/stop/750136/gtfs/,0,,
750138,750138,"Sheridan St at Thomas Street",, -16.909824, 145.761804,1,https://translink.com.au/stop/750138/gtfs/,0,,
750139,750139,"Sheridan St at James Street",, -16.907618, 145.760152,1,https://translink.com.au/stop/750139/gtfs/,0,,
750140,750140,"Sheridan St at Lily Street",, -16.905452, 145.758835,1,https://translink.com.au/stop/750140/gtfs/,0,,
750141,750141,"Sheridan St at Lily St (Tobruk Pool)",, -16.903806, 145.757597,1,https://translink.com.au/stop/750141/gtfs/,0,,
750142,750142,"Sheridan St Cairns North",, -16.902089, 145.756629,1,https://translink.com.au/stop/750142/gtfs/,0,,
750143,750143,"Sheridan St at Rutherford Street",, -16.900146, 145.755741,1,https://translink.com.au/stop/750143/gtfs/,0,,
750144,750144,"Collins Ave at Cairns Botanic Gardens",, -16.899638, 145.748194,1,https://translink.com.au/stop/750144/gtfs/,0,,
750145,750145,"Greenslopes St at Crathern Close",, -16.903038, 145.742795,1,https://translink.com.au/stop/750145/gtfs/,0,,
750146,750146,"Greenslopes Street at McCormack Street",, -16.903384, 145.746311,1,https://translink.com.au/stop/750146/gtfs/,0,,
750147,750147,"Greenslopes St at Centenary Lakes",, -16.903847, 145.751847,1,https://translink.com.au/stop/750147/gtfs/,0,,
750148,750148,"Aeroglen Dr at Palmerston Street",, -16.885749, 145.747548,1,https://translink.com.au/stop/750148/gtfs/,0,,
750149,750149,"Old Smithfield Rd at Simon Street",, -16.879575, 145.716286,2,https://translink.com.au/stop/750149/gtfs/,0,,
750150,750150,"Merrybrook Street at Freshwater State School",, -16.880977, 145.715327,2,https://translink.com.au/stop/750150/gtfs/,0,,
750151,750151,"Old Smithfield Rd at Le Grande Street",, -16.882252, 145.712226,2,https://translink.com.au/stop/750151/gtfs/,0,,
750152,750152,"Kamerunga Road at Freshwater Railway Station",, -16.881565, 145.709623,2,https://translink.com.au/stop/750152/gtfs/,0,,
750153,750153,"Kamerunga Road at Ryan Weare Park",, -16.885218, 145.705044,2,https://translink.com.au/stop/750153/gtfs/,0,,
750154,750154,"Loridan Dr at Adam Drive",, -16.893075, 145.712981,2,https://translink.com.au/stop/750154/gtfs/,0,,
750155,750155,"Loridan Dr at Wills Street",, -16.902682, 145.714709,2,https://translink.com.au/stop/750155/gtfs/,0,,
750156,750156,"Loridan Dr at Windsor Close",, -16.903880, 145.711007,2,https://translink.com.au/stop/750156/gtfs/,0,,
750157,750157,"Cairns Western Arterial at Ramsey Drive",, -16.913251, 145.722446,2,https://translink.com.au/stop/750157/gtfs/,0,,
750158,750158,"McManus St at Whitfield State School",, -16.910954, 145.728037,1,https://translink.com.au/stop/750158/gtfs/,0,,
750159,750159,"McManus St at Park Street",, -16.908205, 145.728291,1,https://translink.com.au/stop/750159/gtfs/,0,,
750160,750160,"McManus St at Hodel Street",, -16.904375, 145.728636,1,https://translink.com.au/stop/750160/gtfs/,0,,
750161,750161,"Woodward St near Nolan St hail 'n' ride",, -16.900522, 145.733946,1,https://translink.com.au/stop/750161/gtfs/,0,,
750162,750162,"Woodward Street at Forest Avenue",, -16.901149, 145.741627,1,https://translink.com.au/stop/750162/gtfs/,0,,
750163,750163,"Richardson St at Pease Street",, -16.906037, 145.741107,1,https://translink.com.au/stop/750163/gtfs/,0,,
750166,750166,"Jensen St at Oregon St",, -16.912918, 145.734766,1,https://translink.com.au/stop/750166/gtfs/,0,,
750167,750167,"Jensen St at Brooks St",, -16.910702, 145.733502,1,https://translink.com.au/stop/750167/gtfs/,0,,
750168,750168,"Jensen St at Redwood Street",, -16.909324, 145.733116,1,https://translink.com.au/stop/750168/gtfs/,0,,
750169,750169,"Jensen St at Boden Street",, -16.907372, 145.733738,1,https://translink.com.au/stop/750169/gtfs/,0,,
750170,750170,"Richardson St at Polentz St",, -16.905382, 145.735748,1,https://translink.com.au/stop/750170/gtfs/,0,,
750171,750171,"Richardson St at Pease Street",, -16.905842, 145.741203,1,https://translink.com.au/stop/750171/gtfs/,0,,
750172,750172,"Woodward St at Pease Street",, -16.901316, 145.741827,1,https://translink.com.au/stop/750172/gtfs/,0,,
750173,750173,"Woodward St near Forest Ave hail 'n' ride",, -16.901220, 145.740940,1,https://translink.com.au/stop/750173/gtfs/,0,,
750174,750174,"Woodward St at Clemson Ave",, -16.901009, 145.738115,1,https://translink.com.au/stop/750174/gtfs/,0,,
750175,750175,"Woodward St near Lomond Cl hail 'n' ride",, -16.900910, 145.737193,1,https://translink.com.au/stop/750175/gtfs/,0,,
750176,750176,"Woodward St at Jensen Street",, -16.900698, 145.734610,1,https://translink.com.au/stop/750176/gtfs/,0,,
750177,750177,"Woodward St at Nolan Street",, -16.900613, 145.733470,1,https://translink.com.au/stop/750177/gtfs/,0,,
750180,750180,"McManus St at Hodel St",, -16.903675, 145.728899,1,https://translink.com.au/stop/750180/gtfs/,0,,
750181,750181,"McManus St at Park Street",, -16.908255, 145.728463,1,https://translink.com.au/stop/750181/gtfs/,0,,
750182,750182,"McManus St at Whitfield State School",, -16.912408, 145.728121,1,https://translink.com.au/stop/750182/gtfs/,0,,
750183,750183,"Murray St at Enmore St",, -16.920266, 145.734151,1,https://translink.com.au/stop/750183/gtfs/,0,,
750184,750184,"Murray St near Enmore Street",, -16.920385, 145.734138,1,https://translink.com.au/stop/750184/gtfs/,0,,
750185,750185,"Pease St at Murray St (Cairns Villa & Leisure Pk)",, -16.920689, 145.740536,1,https://translink.com.au/stop/750185/gtfs/,0,,
750188,750188,"Pease St at Murray St (Cairns Villa & Leisure Pk)",, -16.921165, 145.740036,1,https://translink.com.au/stop/750188/gtfs/,0,,
750189,750189,"Pease St at Reservoir Road",, -16.917714, 145.740990,1,https://translink.com.au/stop/750189/gtfs/,0,,
750190,750190,"Anderson St at Mayers Street",, -16.916387, 145.743623,1,https://translink.com.au/stop/750190/gtfs/,0,,
750191,750191,"Anderson St at English Street",, -16.915553, 145.746085,1,https://translink.com.au/stop/750191/gtfs/,0,,
750192,750192,"Anderson St at Hill Street",, -16.914686, 145.748895,1,https://translink.com.au/stop/750192/gtfs/,0,,
750193,750193,"Anderson St at Chaplain St (Cemetery)",, -16.913525, 145.752308,1,https://translink.com.au/stop/750193/gtfs/,0,,
750195,750195,"Martyn St at Shearer St",, -16.914167, 145.757623,1,https://translink.com.au/stop/750195/gtfs/,0,,
750196,750196,"Martyn St at Grove St",, -16.916091, 145.761048,1,https://translink.com.au/stop/750196/gtfs/,0,,
750201,750201,"Martyn St at Grove St",, -16.916326, 145.760723,1,https://translink.com.au/stop/750201/gtfs/,0,,
750202,750202,"Martyn St near Thomas St hail 'n' ride",, -16.914125, 145.757105,1,https://translink.com.au/stop/750202/gtfs/,0,,
750203,750203,"Anderson St at Chaplain Avenue (Cemetery)",, -16.913565, 145.753406,1,https://translink.com.au/stop/750203/gtfs/,0,,
750205,750205,"Anderson St at Hill St",, -16.915067, 145.749043,1,https://translink.com.au/stop/750205/gtfs/,0,,
750206,750206,"Anderson St at English Street",, -16.916043, 145.746126,1,https://translink.com.au/stop/750206/gtfs/,0,,
750207,750207,"Anderson St at Mayers Street",, -16.916829, 145.743790,1,https://translink.com.au/stop/750207/gtfs/,0,,
750208,750208,"Pease St near Reservoir Rd hail 'n' ride",, -16.917748, 145.741392,1,,0,,
750209,750209,"Stockland Earlville",, -16.944511, 145.739043,1,https://translink.com.au/stop/750209/gtfs/,0,,
750210,750210,"Balaclava Rd at Downing St",, -16.944135, 145.734131,1,https://translink.com.au/stop/750210/gtfs/,0,,
750211,750211,"Lavender St at Holly Street",, -16.937824, 145.730404,1,https://translink.com.au/stop/750211/gtfs/,0,,
750212,750212,"Irene St at Beatrice St (Mooroobool)",, -16.935322, 145.729245,1,https://translink.com.au/stop/750212/gtfs/,0,,
750213,750213,"McGregor St at Wawan St",, -16.926595, 145.731901,1,https://translink.com.au/stop/750213/gtfs/,0,,
750214,750214,"Swallow St at Moody Street",, -16.927381, 145.734739,1,https://translink.com.au/stop/750214/gtfs/,0,,
750215,750215,"Swallow St at Cochrane Street",, -16.930656, 145.738004,1,https://translink.com.au/stop/750215/gtfs/,0,,
750216,750216,"English St at Hoare Street",, -16.925630, 145.746032,1,https://translink.com.au/stop/750216/gtfs/,0,,
750217,750217,"Hoare St at Kiernan Street",, -16.923340, 145.747774,1,https://translink.com.au/stop/750217/gtfs/,0,,
750218,750218,"Hoare Street at Eureka Street (Trinity Bay SHS)",, -16.923863, 145.752562,1,https://translink.com.au/stop/750218/gtfs/,0,,
750219,750219,"Newton Street at Cairns TAFE",, -16.922666, 145.755999,1,https://translink.com.au/stop/750219/gtfs/,0,,
750220,750220,"Aumuller St at Gatton Street",, -16.926174, 145.754692,1,https://translink.com.au/stop/750220/gtfs/,0,,
750221,750221,"DFO Westcourt",, -16.933113, 145.753304,1,https://translink.com.au/stop/750221/gtfs/,0,,
750222,750222,"Aumuller St at O'Leary St",, -16.931634, 145.759661,1,https://translink.com.au/stop/750222/gtfs/,0,,
750224,750224,"Aumuller St at Spence Street",, -16.934795, 145.762340,1,https://translink.com.au/stop/750224/gtfs/,0,,
750225,750225,"Cairns Central Shopping Centre (Spence St)",, -16.926599, 145.773501,1,https://translink.com.au/stop/750225/gtfs/,0,,
750226,750226,"Spence Street at Grafton Street",, -16.924805, 145.775714,1,https://translink.com.au/stop/750226/gtfs/,0,,
750227,750227,"Aumuller St at Spence St (Portsmith)",, -16.934796, 145.761969,1,https://translink.com.au/stop/750227/gtfs/,0,,
750228,750228,"Aumuller St at O'Leary St",, -16.931471, 145.759113,1,https://translink.com.au/stop/750228/gtfs/,0,,
750229,750229,"Mann St at Vivian St",, -16.930085, 145.753028,1,https://translink.com.au/stop/750229/gtfs/,0,,
750230,750230,"Aumuller St at Mann Street",, -16.927423, 145.755696,1,https://translink.com.au/stop/750230/gtfs/,0,,
750231,750231,"Hoare St at Kiernan Street",, -16.923660, 145.748024,1,https://translink.com.au/stop/750231/gtfs/,0,,
750232,750232,"English St at Hoare Street",, -16.925193, 145.746208,1,https://translink.com.au/stop/750232/gtfs/,0,,
750233,750233,"Lennon St at Alfred St",, -16.931174, 145.744189,1,https://translink.com.au/stop/750233/gtfs/,0,,
750234,750234,"McGregor St at Irene St",, -16.926690, 145.730654,1,https://translink.com.au/stop/750234/gtfs/,0,,
750235,750235,"Grevillea St at Pepperina St",, -16.936384, 145.734358,1,https://translink.com.au/stop/750235/gtfs/,0,,
750236,750236,"Balaclava Rd at Yarrum St",, -16.943455, 145.735909,1,https://translink.com.au/stop/750236/gtfs/,0,,
750238,750238,"Mulgrave Rd at Soure Street",, -16.942159, 145.739374,1,https://translink.com.au/stop/750238/gtfs/,0,,
750239,750239,"Mulgrave Rd at Kelly Street",, -16.939626, 145.743142,1,https://translink.com.au/stop/750239/gtfs/,0,,
750240,750240,"Mulgrave Rd at Kelly Street (Balaclava State Sch)",, -16.938484, 145.744964,1,https://translink.com.au/stop/750240/gtfs/,0,,
750241,750241,"Mulgrave Rd at DFO Westcourt",, -16.935154, 145.753699,1,https://translink.com.au/stop/750241/gtfs/,0,,
750242,750242,"Mulgrave Rd at Creedy Street",, -16.931008, 145.757515,1,https://translink.com.au/stop/750242/gtfs/,0,,
750243,750243,"Mulgrave Rd at Collinson St",, -16.928809, 145.758711,1,https://translink.com.au/stop/750243/gtfs/,0,,
750244,750244,"Mulgrave Rd at Parramatta Park State School",, -16.925179, 145.763900,1,https://translink.com.au/stop/750244/gtfs/,0,,
750247,750247,"Mulgrave Rd near Parramatta Park State Sch HnR",, -16.925399, 145.764306,1,https://translink.com.au/stop/750247/gtfs/,0,,
750248,750248,"Mulgrave Rd at Gregory Street",, -16.927034, 145.762002,1,https://translink.com.au/stop/750248/gtfs/,0,,
750250,750250,"Mulgrave Rd at Creedy St",, -16.931332, 145.757867,1,https://translink.com.au/stop/750250/gtfs/,0,,
750251,750251,"Mulgrave Rd at Tills St",, -16.936516, 145.751652,1,https://translink.com.au/stop/750251/gtfs/,0,,
750252,750252,"Mulgrave Street at Dalton St",, -16.937833, 145.748047,1,https://translink.com.au/stop/750252/gtfs/,0,,
750253,750253,"Mulgrave Rd at Wilks St (Balaclava State Sch)",, -16.938962, 145.745053,1,https://translink.com.au/stop/750253/gtfs/,0,,
750254,750254,"Mulgrave Rd at Marsh Street",, -16.941228, 145.741605,1,https://translink.com.au/stop/750254/gtfs/,0,,
750256,750256,"Toogood Rd at Cavanagh Street",, -16.954238, 145.742851,2,https://translink.com.au/stop/750256/gtfs/,0,,
750257,750257,"Toogood Rd at Nephrite St",, -16.957093, 145.738071,2,https://translink.com.au/stop/750257/gtfs/,0,,
750258,750258,"Toogood Rd at Agate St",, -16.957809, 145.734428,2,https://translink.com.au/stop/750258/gtfs/,0,,
750259,750259,"Anderson Rd at Bellbird Street",, -16.966436, 145.730609,2,https://translink.com.au/stop/750259/gtfs/,0,,
750260,750260,"Anderson Rd at Windarra St (Coconut Village)",, -16.967751, 145.743672,2,https://translink.com.au/stop/750260/gtfs/,0,,
750261,750261,"Windarra St at Noela Close",, -16.964056, 145.739866,2,https://translink.com.au/stop/750261/gtfs/,0,,
750262,750262,"Anderson Rd at Shannon Dr",, -16.966688, 145.731856,2,https://translink.com.au/stop/750262/gtfs/,0,,
750263,750263,"Fairview St at Turquoise Cl (Forno Park)",, -16.963409, 145.730319,2,https://translink.com.au/stop/750263/gtfs/,0,,
750264,750264,"Toogood St at Panorama Street",, -16.959012, 145.728127,2,https://translink.com.au/stop/750264/gtfs/,0,,
750265,750265,"Toogood Rd at Tamba Street",, -16.957884, 145.733497,2,https://translink.com.au/stop/750265/gtfs/,0,,
750266,750266,"Toogood Rd at Erang Street",, -16.956319, 145.741018,2,https://translink.com.au/stop/750266/gtfs/,0,,
750267,750267,"Des Chalmers Drive at Rigg Street",, -16.957307, 145.747145,2,https://translink.com.au/stop/750267/gtfs/,0,,
750269,750269,"Progress Rd at Dillon Close (White Rock SS)",, -16.987582, 145.743111,2,https://translink.com.au/stop/750269/gtfs/,0,,
750270,750270,"Tiffany St at Alabama Street",, -16.987453, 145.746762,2,https://translink.com.au/stop/750270/gtfs/,0,,
750271,750271,"Progress Rd at Leftwich St (Trinity Anglican Sch)",, -16.979280, 145.743917,2,https://translink.com.au/stop/750271/gtfs/,0,,
750273,750273,"Kambara St at Sheehy Road",, -16.976566, 145.750419,2,https://translink.com.au/stop/750273/gtfs/,0,,
750274,750274,"Kambara St at Skull Road",, -16.971539, 145.750959,2,https://translink.com.au/stop/750274/gtfs/,0,,
750275,750275,"Skull Rd at Kowinka St",, -16.971133, 145.748546,2,https://translink.com.au/stop/750275/gtfs/,0,,
750276,750276,"Forest Gardens Bvd at Madigans Drive",, -16.977846, 145.740038,2,https://translink.com.au/stop/750276/gtfs/,0,,
750277,750277,"Forest Gardens Bvd at Archer Close",, -16.979959, 145.737547,2,https://translink.com.au/stop/750277/gtfs/,0,,
750278,750278,"Forest Gardens Bvd at Oakblue Drive",, -16.983309, 145.736945,2,https://translink.com.au/stop/750278/gtfs/,0,,
750279,750279,"Forest Gardens Bvd at Booyong Drive",, -16.985064, 145.738559,2,https://translink.com.au/stop/750279/gtfs/,0,,
750280,750280,"Mt Sheridan Plaza (Barnard Dr) Stop B",, -16.989640, 145.739618,2,https://translink.com.au/stop/750280/gtfs/,0,,
750281,750281,"Timberlea Dr at Walker Road",, -17.012400, 145.720417,3,https://translink.com.au/stop/750281/gtfs/,0,,
750282,750282,"Timberlea Dr at Boyce Street",, -17.007669, 145.718486,3,https://translink.com.au/stop/750282/gtfs/,0,,
750283,750283,"Timberlea Dr at Dan Jones Street",, -17.003354, 145.720765,3,https://translink.com.au/stop/750283/gtfs/,0,,
750284,750284,"Robert Rd at Templar Crescent",, -17.009968, 145.726500,3,https://translink.com.au/stop/750284/gtfs/,0,,
750285,750285,"Robert Rd at Cintra Street",, -17.006504, 145.730169,3,https://translink.com.au/stop/750285/gtfs/,0,,
750286,750286,"Hardy Rd at Malabar Street (Tom Murray Park)",, -17.000048, 145.734397,2,https://translink.com.au/stop/750286/gtfs/,0,,
750287,750287,"Forest Gardens Bvd at Booyong Drive",, -16.984863, 145.738463,2,https://translink.com.au/stop/750287/gtfs/,0,,
750288,750288,"Forest Gardens Bvd at Oakblue Drive",, -16.983328, 145.736817,2,https://translink.com.au/stop/750288/gtfs/,0,,
750289,750289,"Forest Gardens Bvd at Archer Close",, -16.979901, 145.737392,2,https://translink.com.au/stop/750289/gtfs/,0,,
750290,750290,"Forest Gardens Bvd at Sawpit Sreet",, -16.977690, 145.739715,2,https://translink.com.au/stop/750290/gtfs/,0,,
750291,750291,"Mt Sheridan Plaza (Barnard Dr) Stop A",, -16.989790, 145.739563,2,https://translink.com.au/stop/750291/gtfs/,0,,
750292,750292,"Trafalgar Rd at Barnard Drive",, -16.995255, 145.741809,2,https://translink.com.au/stop/750292/gtfs/,0,,
750293,750293,"Trafalgar Rd at Nimroud Close",, -16.997076, 145.739419,2,https://translink.com.au/stop/750293/gtfs/,0,,
750294,750294,"Idalia Rd at Scotia Close",, -16.999521, 145.739406,2,https://translink.com.au/stop/750294/gtfs/,0,,
750295,750295,"Robert Rd at Golden Grove Dr (Fretwell Park)",, -17.004130, 145.738041,2,https://translink.com.au/stop/750295/gtfs/,0,,
750296,750296,"Ravizza Dr at MacKellar Close",, -17.013799, 145.739250,3,https://translink.com.au/stop/750296/gtfs/,0,,
750297,750297,"Ravizza Dr at Hancock St (Edmonton Centre)",, -17.017881, 145.742496,3,https://translink.com.au/stop/750297/gtfs/,0,,
750298,750298,"Mill Rd at Hartill Street",, -17.020320, 145.739220,3,https://translink.com.au/stop/750298/gtfs/,0,,
750299,750299,"Mill Rd at Hartill Street",, -17.020188, 145.739184,3,https://translink.com.au/stop/750299/gtfs/,0,,
750300,750300,"Hambledon Drive at Sugarworld Gardens",, -17.022044, 145.724957,3,https://translink.com.au/stop/750300/gtfs/,0,,
750301,750301,"Graham St at Jubilee St (John Walker Park)",, -17.023479, 145.734379,3,https://translink.com.au/stop/750301/gtfs/,0,,
750302,750302,"Graham St at Mt Peter Rd",, -17.026667, 145.737207,3,https://translink.com.au/stop/750302/gtfs/,0,,
750303,750303,"Mt Peter Rd at Prior St",, -17.024031, 145.739617,3,https://translink.com.au/stop/750303/gtfs/,0,,
750304,750304,"Cattle St at Old Bruce Highway",, -17.020741, 145.744773,3,https://translink.com.au/stop/750304/gtfs/,0,,
750305,750305,"Cattle St at Old Bruce Highway",, -17.020988, 145.744367,3,https://translink.com.au/stop/750305/gtfs/,0,,
750306,750306,"Mt Peter Rd at Prior Street",, -17.024095, 145.739700,3,https://translink.com.au/stop/750306/gtfs/,0,,
750307,750307,"Mt Peter Rd at Graham Street",, -17.026750, 145.737613,3,https://translink.com.au/stop/750307/gtfs/,0,,
750308,750308,"Graham St at Jubilee Street (John Walker Park)",, -17.023936, 145.734615,3,https://translink.com.au/stop/750308/gtfs/,0,,
750310,750310,"Farmer St at Tilse Street",, -17.027626, 145.745161,3,https://translink.com.au/stop/750310/gtfs/,0,,
750311,750311,"Farmer St at Gattenby Street",, -17.029126, 145.747344,3,https://translink.com.au/stop/750311/gtfs/,0,,
750312,750312,"Cairns Rd at Clarke Street",, -17.085966, 145.779342,4,https://translink.com.au/stop/750312/gtfs/,0,,
750313,750313,"Cairns Rd at George Street",, -17.087525, 145.783752,4,https://translink.com.au/stop/750313/gtfs/,0,,
750314,750314,"Norman St at Gordon Street (Gordonvale)",, -17.091779, 145.786494,4,https://translink.com.au/stop/750314/gtfs/,0,,
750315,750315,"Riverstone Rd at Swan Street",, -17.097526, 145.781742,4,https://translink.com.au/stop/750315/gtfs/,0,,
750316,750316,"Fisher Rd at Creswell Close",, -17.094747, 145.771373,4,https://translink.com.au/stop/750316/gtfs/,0,,
750317,750317,"Dempsey St at Hooper Close",, -17.104064, 145.772132,4,https://translink.com.au/stop/750317/gtfs/,0,,
750318,750318,"Riverstone Rd at Jacob Close",, -17.101870, 145.776830,4,https://translink.com.au/stop/750318/gtfs/,0,,
750319,750319,"Riverstone Road at Griffin Street",, -17.098741, 145.780355,4,https://translink.com.au/stop/750319/gtfs/,0,,
750320,750320,"Riverstone Rd at Moller Street",, -17.097532, 145.781396,4,https://translink.com.au/stop/750320/gtfs/,0,,
750321,750321,"Cairns Rd at Clarke Street",, -17.086225, 145.779261,4,https://translink.com.au/stop/750321/gtfs/,0,,
750322,750322,"Bruce Hwy near King St",, -17.078426, 145.775388,4,,0,,
750323,750323,"Old Bruce Highway (Barrier Reef Caravilla)",, -17.024218, 145.746517,3,https://translink.com.au/stop/750323/gtfs/,0,,
750324,750324,"Ravizza Dr at Hartill St (Edmonton Centre)",, -17.018072, 145.742465,3,https://translink.com.au/stop/750324/gtfs/,0,,
750325,750325,"Bicentennial Rd near McLaughlin Rd",, -17.010690, 145.735140,3,https://translink.com.au/stop/750325/gtfs/,0,,
750326,750326,"Bicentennial Rd at Jones Access Road",, -17.007010, 145.735556,3,https://translink.com.au/stop/750326/gtfs/,0,,
750327,750327,"Robert Rd at Bicentennial Road",, -17.003822, 145.736456,2,https://translink.com.au/stop/750327/gtfs/,0,,
750328,750328,"Robert Rd at Golden Grove Drive",, -17.004147, 145.739428,2,https://translink.com.au/stop/750328/gtfs/,0,,
750329,750329,"Idalia Rd at Scotia Close",, -16.999664, 145.739348,2,https://translink.com.au/stop/750329/gtfs/,0,,
750330,750330,"Charlotte Cl at Service Road",, -16.961979, 145.746516,2,https://translink.com.au/stop/750330/gtfs/,0,,
750331,750331,"Des Chalmers Drive at Rigg Street",, -16.957438, 145.746908,2,https://translink.com.au/stop/750331/gtfs/,0,,
750332,750332,"Mulgrave Rd at Toogood Rd",, -16.950302, 145.742430,1,https://translink.com.au/stop/750332/gtfs/,0,,
750333,750333,"Reservoir Rd at Enmore Street",, -16.916812, 145.733631,1,https://translink.com.au/stop/750333/gtfs/,0,,
750334,750334,"Cairns Western Arterial at Ramsey Drive",, -16.913731, 145.720616,2,https://translink.com.au/stop/750334/gtfs/,0,,
750335,750335,"Cairns Western Arterial at Harley Street",, -16.880496, 145.690618,2,https://translink.com.au/stop/750335/gtfs/,0,,
750336,750336,"Cairns Western Arterial at Illawarra Street",, -16.864451, 145.691399,3,https://translink.com.au/stop/750336/gtfs/,0,,
750337,750337,"Cedar Rd near Warren St hail 'n' ride",, -16.745436, 145.665872,5,https://translink.com.au/stop/750337/gtfs/,0,,
750342,750342,"Endeavour Rd at Upolu Esp",, -16.761526, 145.672574,5,https://translink.com.au/stop/750342/gtfs/,0,,
750343,750343,"Arlington Esp near Upolu Esp hail 'n' ride",, -16.764394, 145.675308,5,https://translink.com.au/stop/750343/gtfs/,0,,
750344,750344,"Arlington Esp at Clifton Road (Clifton Beach)",, -16.767246, 145.676809,5,https://translink.com.au/stop/750344/gtfs/,0,,
750345,750345,"Clifton Rd near Yule Ave hail 'n' ride",, -16.768896, 145.675266,5,https://translink.com.au/stop/750345/gtfs/,0,,
750346,750346,"Cheviot St at Smithfield SHS hail 'n' ride",, -16.815043, 145.693853,3,https://translink.com.au/stop/750346/gtfs/,0,,
750347,750347,"Reed Rd near Centaur St hail 'n' ride",, -16.804936, 145.701851,3,https://translink.com.au/stop/750347/gtfs/,0,,
750348,750348,"Reed Rd near Debbie St hail 'n' ride",, -16.801699, 145.705945,3,https://translink.com.au/stop/750348/gtfs/,0,,
750349,750349,"Reed Rd near Debbie St hail 'n' ride",, -16.802308, 145.704972,3,https://translink.com.au/stop/750349/gtfs/,0,,
750350,750350,"Manus St near Kitava St hail 'n' ride",, -16.797863, 145.694272,4,https://translink.com.au/stop/750350/gtfs/,0,,
750351,750351,"Manus St near Kitava St hail 'n' ride",, -16.797784, 145.694458,4,https://translink.com.au/stop/750351/gtfs/,0,,
750352,750352,"Trinity Beach State School hail 'n' ride",, -16.793576, 145.690610,4,https://translink.com.au/stop/750352/gtfs/,0,,
750353,750353,"Madang St near Rabaul St hail 'n' ride",, -16.793742, 145.692766,4,https://translink.com.au/stop/750353/gtfs/,0,,
750354,750354,"Moresby St near Saidor Cl hail 'n' ride",, -16.793110, 145.695096,4,https://translink.com.au/stop/750354/gtfs/,0,,
750355,750355,"Moresby St near Kiriwina Cl hail 'n' ride",, -16.791421, 145.696493,4,https://translink.com.au/stop/750355/gtfs/,0,,
750356,750356,"Anderson St near Lae St hail 'n' ride",, -16.788766, 145.696085,4,https://translink.com.au/stop/750356/gtfs/,0,,
750357,750357,"Keem St near Peterson St hail 'n' ride",, -16.787211, 145.696810,4,https://translink.com.au/stop/750357/gtfs/,0,,
750358,750358,"Poolwood Rd near Cabarita St hail 'n' ride",, -16.787684, 145.685187,4,https://translink.com.au/stop/750358/gtfs/,0,,
750359,750359,"Albatross St near Wagtail Cl hail 'n' ride",, -16.779086, 145.683155,4,https://translink.com.au/stop/750359/gtfs/,0,,
750360,750360,"Gannet St near Manly Cl hail 'n' ride",, -16.783101, 145.682676,4,https://translink.com.au/stop/750360/gtfs/,0,,
750361,750361,"Gannet St near Newport Cl hail 'n' ride",, -16.784631, 145.678773,4,https://translink.com.au/stop/750361/gtfs/,0,,
750362,750362,"Mount Milman Dr near Danbulan St hail 'n' ride",, -16.837140, 145.694961,3,https://translink.com.au/stop/750362/gtfs/,0,,
750363,750363,"Lydia St near Dennison St hail 'n' ride",, -16.824363, 145.686456,3,https://translink.com.au/stop/750363/gtfs/,0,,
750365,750365,"Kamerunga Rd near Illawarra St hail 'n' ride",, -16.867365, 145.688683,3,https://translink.com.au/stop/750365/gtfs/,0,,
750366,750366,"Lake Placid Road near Brinsmead Kamerunga Rd",, -16.869804, 145.684900,3,https://translink.com.au/stop/750366/gtfs/,0,,
750367,750367,"Redlynch Intake Rd near Short St hail 'n' ride",, -16.889284, 145.696414,2,https://translink.com.au/stop/750367/gtfs/,0,,
750368,750368,"Redlynch Shopping Centre (Larsen St)",, -16.894993, 145.699505,2,https://translink.com.au/stop/750368/gtfs/,0,,
750370,750370,"Brinsmead Kamerunga Rd at Redlynch Railway Station",, -16.886854, 145.697666,2,https://translink.com.au/stop/750370/gtfs/,0,,
750371,750371,"Kamerunga Road at Savina Park",, -16.876682, 145.722878,2,https://translink.com.au/stop/750371/gtfs/,0,,
750372,750372,"Kamerunga Rd at Clacherty St (Stratford)",, -16.875573, 145.731118,2,https://translink.com.au/stop/750372/gtfs/,0,,
750373,750373,"Stratford Pde near Tully St hail 'n' ride",, -16.875285, 145.736661,2,https://translink.com.au/stop/750373/gtfs/,0,,
750374,750374,"Loridan Dr near Adam Dr (Brinsmead) hail 'n' ride",, -16.893243, 145.712974,2,https://translink.com.au/stop/750374/gtfs/,0,,
750376,750376,"Loridan Dr near Banning Av hail 'n' ride",, -16.903729, 145.710945,2,https://translink.com.au/stop/750376/gtfs/,0,,
750377,750377,"Piccones Shopping Village (Jensen St)",, -16.913825, 145.739705,1,https://translink.com.au/stop/750377/gtfs/,0,,
750378,750378,"Piccones Shopping Village (Jensen St)",, -16.913769, 145.739717,1,https://translink.com.au/stop/750378/gtfs/,0,,
750379,750379,"Jensen Street at Oregon Street",, -16.912848, 145.734925,1,https://translink.com.au/stop/750379/gtfs/,0,,
750380,750380,"Jensen St at Brooks Street",, -16.910818, 145.733628,1,https://translink.com.au/stop/750380/gtfs/,0,,
750381,750381,"Jensen St near Redwood St hail 'n' ride",, -16.909320, 145.733247,1,https://translink.com.au/stop/750381/gtfs/,0,,
750382,750382,"Jensen St at Boden Street",, -16.907375, 145.733850,1,https://translink.com.au/stop/750382/gtfs/,0,,
750383,750383,"Richardson St near Polentz St hail 'n' ride",, -16.905596, 145.735722,1,https://translink.com.au/stop/750383/gtfs/,0,,
750384,750384,"Greenslopes St near Crathern Cl hail 'n' ride",, -16.903319, 145.742738,1,https://translink.com.au/stop/750384/gtfs/,0,,
750385,750385,"Greenslopes Street at McCormack Street",, -16.903552, 145.746320,1,https://translink.com.au/stop/750385/gtfs/,0,,
750386,750386,"Greenslopes St near MacNamara St hail 'n' ride",, -16.904153, 145.751863,1,https://translink.com.au/stop/750386/gtfs/,0,,
750388,750388,"Irene St near Beatrice St hail 'n' ride",, -16.935280, 145.729409,1,https://translink.com.au/stop/750388/gtfs/,0,,
750392,750392,"Hardy Rd at Tom Murray Park",, -17.000289, 145.734479,2,https://translink.com.au/stop/750392/gtfs/,0,,
750394,750394,"Robert Rd near Templar Cr hail 'n' ride",, -17.010029, 145.726395,3,https://translink.com.au/stop/750394/gtfs/,0,,
750395,750395,"Timberlea Drive at Dan Jones St",, -17.003443, 145.720803,3,https://translink.com.au/stop/750395/gtfs/,0,,
750396,750396,"Timberlea Dr near Shelbourne St hail 'n' ride",, -17.007728, 145.718567,3,https://translink.com.au/stop/750396/gtfs/,0,,
750397,750397,"Timberlea Rd near Walker Rd hail 'n' ride",, -17.012500, 145.720480,3,https://translink.com.au/stop/750397/gtfs/,0,,
750398,750398,"Walker Rd at Sugarworld",, -17.018709, 145.728422,3,https://translink.com.au/stop/750398/gtfs/,0,,
750399,750399,"Walker Rd at Sugarworld",, -17.018688, 145.727787,3,https://translink.com.au/stop/750399/gtfs/,0,,
750401,750401,"Wiseman Rd near Canecutter Rd Park hail 'n' ride",, -17.025777, 145.729863,3,https://translink.com.au/stop/750401/gtfs/,0,,
750402,750402,"Farmer St near Maren St hail 'n' ride",, -17.033825, 145.740096,3,https://translink.com.au/stop/750402/gtfs/,0,,
750404,750404,"Service Rd near Bruce Hwy hail 'n' ride",, -17.025261, 145.747066,3,https://translink.com.au/stop/750404/gtfs/,0,,
750405,750405,"Ravizza Dr near MacKellar Cl hail 'n' ride",, -17.013956, 145.739309,3,https://translink.com.au/stop/750405/gtfs/,0,,
750406,750406,"Bicentennial Road at Resolution Drive",, -17.012014, 145.735124,3,https://translink.com.au/stop/750406/gtfs/,0,,
750407,750407,"Bicentennial Rd at Duyfken Street",, -17.007035, 145.735669,3,https://translink.com.au/stop/750407/gtfs/,0,,
750408,750408,"Trafalgar Rd near Nimroud Cl hail 'n' ride",, -16.996996, 145.739330,2,https://translink.com.au/stop/750408/gtfs/,0,,
750409,750409,"Trafalgar Rd near Barnard Dr hail 'n' ride",, -16.995262, 145.741702,2,https://translink.com.au/stop/750409/gtfs/,0,,
750410,750410,"Des Chalmers Drive at Charlotte Close",, -16.962048, 145.746621,2,https://translink.com.au/stop/750410/gtfs/,0,,
750412,750412,"Dempsey Street at Pyramid Estate (Gordonvale)",, -17.087449, 145.766710,4,https://translink.com.au/stop/750412/gtfs/,0,,
750413,750413,"Fisher Rd near Creswell Cl hail 'n' ride",, -17.094775, 145.771230,4,https://translink.com.au/stop/750413/gtfs/,0,,
750414,750414,"Dempsey St near Hooper Cl hail 'n' ride",, -17.104039, 145.771980,4,https://translink.com.au/stop/750414/gtfs/,0,,
750415,750415,"Riverstone Rd near Jacob Cl hail 'n' ride",, -17.102058, 145.776848,4,https://translink.com.au/stop/750415/gtfs/,0,,
750416,750416,"Riverstone Rd near Griffin St hail 'n' ride",, -17.098765, 145.780580,4,https://translink.com.au/stop/750416/gtfs/,0,,
750417,750417,"Cairns Rd at Nelson Street",, -17.087656, 145.783713,4,https://translink.com.au/stop/750417/gtfs/,0,,
750418,750418,"Bruce Hwy near Loftus St hail 'n' ride",, -17.080596, 145.775430,4,,0,,
750420,750420,"Windarra St near Tracey Cl hail 'n' ride",, -16.964060, 145.739986,2,https://translink.com.au/stop/750420/gtfs/,0,,
750421,750421,"Fairview Street at Forno Park",, -16.963404, 145.730428,2,https://translink.com.au/stop/750421/gtfs/,0,,
750422,750422,"Toogood St at Panorama St",, -16.959150, 145.727981,2,https://translink.com.au/stop/750422/gtfs/,0,,
750423,750423,"Toogood Rd near Lynette St hail 'n' ride",, -16.954202, 145.742690,2,https://translink.com.au/stop/750423/gtfs/,0,,
750424,750424,"White Rock State School hail 'n' ride",, -16.987155, 145.743003,2,https://translink.com.au/stop/750424/gtfs/,0,,
750425,750425,"Tiffany St at Alabama Street",, -16.987418, 145.746885,2,https://translink.com.au/stop/750425/gtfs/,0,,
750426,750426,"Frangipanni St at Short Street",, -16.983069, 145.745456,2,https://translink.com.au/stop/750426/gtfs/,0,,
750427,750427,"Frangipanni St at Khalu Park",, -16.983040, 145.746579,2,https://translink.com.au/stop/750427/gtfs/,0,,
750428,750428,"Progress Rd near Trinity Anglican School HnR",, -16.979427, 145.744030,2,https://translink.com.au/stop/750428/gtfs/,0,,
750432,750432,"Dunne St near Sunbus Depot hail 'n' ride",, -16.824629, 145.704222,3,https://translink.com.au/stop/750432/gtfs/,0,,
750435,750435,"Walker Rd at Isabella State School",, -17.017515, 145.725370,3,https://translink.com.au/stop/750435/gtfs/,0,,
750436,750436,"Walker Rd at Isabella State School",, -17.017301, 145.724295,3,https://translink.com.au/stop/750436/gtfs/,0,,
750437,750437,"Collins Ave at Cairns Botanic Gardens",, -16.899481, 145.748290,1,https://translink.com.au/stop/750437/gtfs/,0,,
750440,750440,"Cairns Central Shopping Centre (Spence St)",, -16.926721, 145.773647,1,https://translink.com.au/stop/750440/gtfs/,0,,
750441,750441,"Cairns City bus station, platform 2",, -16.920613, 145.774441,1,https://translink.com.au/stop/750441/gtfs/,0,place_cnsstn,2
750442,750442,"Cairns City bus station, platform 1",, -16.920742, 145.774720,1,https://translink.com.au/stop/750442/gtfs/,0,place_cnsstn,1
750443,750443,"Cairns Hospital (Lake Street)",, -16.912551, 145.767480,1,https://translink.com.au/stop/750443/gtfs/,0,,
750444,750444,"Cairns Hospital (Lake Street)",, -16.912587, 145.767852,1,https://translink.com.au/stop/750444/gtfs/,0,,
750445,750445,"James Cook University bus station",, -16.818238, 145.690961,3,https://translink.com.au/stop/750445/gtfs/,0,place_jcucns,
750455,750455,"Dunne St near Sunbus Depot hail 'n' ride",, -16.824736, 145.704296,3,https://translink.com.au/stop/750455/gtfs/,0,,
750459,750459,"Mulgrave Road at Dillon Street",, -16.937150, 145.748885,1,https://translink.com.au/stop/750459/gtfs/,0,,
750463,750463,"Woodward St at Skye Close",, -16.900819, 145.737870,1,https://translink.com.au/stop/750463/gtfs/,0,,
750464,750464,"Woodward Street at Heavey Crescent",, -16.900275, 145.731141,1,https://translink.com.au/stop/750464/gtfs/,0,,
750465,750465,"Woodward Street at McManus Street",, -16.900272, 145.729454,1,https://translink.com.au/stop/750465/gtfs/,0,,
750467,750467,"Mestrez St at Long Street",, -16.938719, 145.736556,1,https://translink.com.au/stop/750467/gtfs/,0,,
750468,750468,"Bruce Highway at Anderson Road",, -16.966839, 145.746549,2,https://translink.com.au/stop/750468/gtfs/,0,,
750477,750477,"Lake Street at Cairns Private Hospital",, -16.916618, 145.771000,1,https://translink.com.au/stop/750477/gtfs/,0,,
750478,750478,"Lake Street at Cairns Private Hospital",, -16.915801, 145.770534,1,https://translink.com.au/stop/750478/gtfs/,0,,
750479,750479,"Aroona St near Red Peak Bvd hail 'n' ride",, -16.861664, 145.689616,3,https://translink.com.au/stop/750479/gtfs/,0,,
750480,750480,"Aroona St near Illowra Ct hail 'n' ride",, -16.862236, 145.689524,3,https://translink.com.au/stop/750480/gtfs/,0,,
750481,750481,"Spence St at Grafton Street",, -16.924912, 145.775926,1,https://translink.com.au/stop/750481/gtfs/,0,,
750482,750482,"Bruce Highway at Anderson Road",, -16.966697, 145.746661,2,https://translink.com.au/stop/750482/gtfs/,0,,
750483,750483,"Mercurio Street at Giffin Road",, -16.990964, 145.746168,2,https://translink.com.au/stop/750483/gtfs/,0,,
750484,750484,"Mercurio Street at Ferngully Street",, -16.990659, 145.746130,2,https://translink.com.au/stop/750484/gtfs/,0,,
750486,750486,"Kowinka St near Sheehy St hail 'n' ride",, -16.975954, 145.747738,2,https://translink.com.au/stop/750486/gtfs/,0,,
750487,750487,"Florence Street at Sheridan Street",, -16.920828, 145.770453,1,https://translink.com.au/stop/750487/gtfs/,0,,
750488,750488,"Florence Street at Sheridan Street",, -16.920675, 145.770202,1,https://translink.com.au/stop/750488/gtfs/,0,,
750489,750489,"Cairns Central Terminus",, -16.925276, 145.771107,1,https://translink.com.au/stop/750489/gtfs/,0,,
750491,750491,"Veivers Rd near Captain Cook Hwy hail 'n' ride",, -16.748174, 145.663814,5,https://translink.com.au/stop/750491/gtfs/,0,,
750492,750492,"Veivers Rd near Williams Esp hail 'n' ride",, -16.749557, 145.670262,5,https://translink.com.au/stop/750492/gtfs/,0,,
750493,750493,"Poolwood Rd near Mahab St hail 'n' ride",, -16.784463, 145.689486,4,https://translink.com.au/stop/750493/gtfs/,0,,
750494,750494,"Poolwood Rd near Cottesloe St hail 'n' ride",, -16.790350, 145.681945,4,https://translink.com.au/stop/750494/gtfs/,0,,
750495,750495,"Poolwood Rd near Cottesloe St hail 'n' ride",, -16.790481, 145.681618,4,https://translink.com.au/stop/750495/gtfs/,0,,
750496,750496,"Roberts Dr near Seaways St hail 'n' ride",, -16.801234, 145.697272,4,https://translink.com.au/stop/750496/gtfs/,0,,
750497,750497,"Roberts Dr near Seaways St hail 'n' ride",, -16.800705, 145.696803,4,https://translink.com.au/stop/750497/gtfs/,0,,
750498,750498,"Reed Rd near Smithfield Village Dr hail 'n' ride",, -16.808685, 145.697030,3,https://translink.com.au/stop/750498/gtfs/,0,,
750499,750499,"Reed Rd near Smithfield Village Dr hail 'n' ride",, -16.808608, 145.696822,3,https://translink.com.au/stop/750499/gtfs/,0,,
750500,750500,"Roberts Dr near Moresby St hail 'n' ride",, -16.799462, 145.694867,4,https://translink.com.au/stop/750500/gtfs/,0,,
750501,750501,"Gavin St near Stanton Rd hail 'n' ride",, -16.831029, 145.690170,3,https://translink.com.au/stop/750501/gtfs/,0,,
750503,750503,"Wistaria St near Mahogany St hail 'n' ride",, -16.845868, 145.735005,2,https://translink.com.au/stop/750503/gtfs/,0,,
750504,750504,"Wistaria St near Baronia Cr hail 'n' ride",, -16.840209, 145.735599,2,https://translink.com.au/stop/750504/gtfs/,0,,
750505,750505,"Machans St near Beach Access Rd hail 'n' ride",, -16.855267, 145.742351,2,https://translink.com.au/stop/750505/gtfs/,0,,
750506,750506,"Marshall St near Machan St hail 'n' ride",, -16.851523, 145.748955,2,https://translink.com.au/stop/750506/gtfs/,0,,
750507,750507,"Tucker St near David St hail 'n' ride",, -16.852696, 145.748103,2,https://translink.com.au/stop/750507/gtfs/,0,,
750508,750508,"Captain Cook Hwy near Arnold St hail 'n' ride",, -16.873096, 145.740752,2,https://translink.com.au/stop/750508/gtfs/,0,,
750509,750509,"Captain Cook Hwy near Arnold St hail 'n' ride",, -16.872681, 145.739895,2,https://translink.com.au/stop/750509/gtfs/,0,,
750510,750510,"Impey Street at Baway Close",, -16.865429, 145.682814,3,https://translink.com.au/stop/750510/gtfs/,0,,
750511,750511,"Impey Street at Lake Placid Road",, -16.870895, 145.681008,3,https://translink.com.au/stop/750511/gtfs/,0,,
750512,750512,"Brinsmead Kamerunga Rd near Ernest St HnR",, -16.887152, 145.695778,2,https://translink.com.au/stop/750512/gtfs/,0,,
750513,750513,"Aeroglen Rd near Palmerston St hail 'n' ride",, -16.882574, 145.745467,1,https://translink.com.au/stop/750513/gtfs/,0,,
750514,750514,"Kamerunga Road at Hardwick Street",, -16.875916, 145.727358,2,https://translink.com.au/stop/750514/gtfs/,0,,
750515,750515,"Impey Street at Baway Close",, -16.865383, 145.682560,3,https://translink.com.au/stop/750515/gtfs/,0,,
750518,750518,"Reservoir Road at Enmore Street",, -16.916692, 145.734657,1,https://translink.com.au/stop/750518/gtfs/,0,,
750519,750519,"Reservoir Road at Pease Street",, -16.917907, 145.738789,1,https://translink.com.au/stop/750519/gtfs/,0,,
750520,750520,"Enmore St near Reservoir Rd hail 'n' ride",, -16.917163, 145.734174,1,https://translink.com.au/stop/750520/gtfs/,0,,
750521,750521,"Olive St near Moody St hail 'n' ride",, -16.920848, 145.739262,1,https://translink.com.au/stop/750521/gtfs/,0,,
750522,750522,"Spence St near Buchan St hail 'n' ride",, -16.934170, 145.763985,1,https://translink.com.au/stop/750522/gtfs/,0,,
750523,750523,"Trinity Bay High near Hoare St hail 'n' ride",, -16.924112, 145.752430,1,https://translink.com.au/stop/750523/gtfs/,0,,
750524,750524,"Swallow St near Cochrane St hail 'n' ride",, -16.930839, 145.737764,1,https://translink.com.au/stop/750524/gtfs/,0,,
750525,750525,"Swallow St near McGregor Rd hail 'n' ride",, -16.927524, 145.734566,1,https://translink.com.au/stop/750525/gtfs/,0,,
750526,750526,"Lavender St near Holly St hail 'n' ride",, -16.937782, 145.730494,1,https://translink.com.au/stop/750526/gtfs/,0,,
750527,750527,"Mestrez St near Long St hail 'n' ride",, -16.938785, 145.736445,1,https://translink.com.au/stop/750527/gtfs/,0,,
750528,750528,"Grevillea St near Pepperina St hail 'n' ride",, -16.936394, 145.734122,1,https://translink.com.au/stop/750528/gtfs/,0,,
750529,750529,"Lennon St near Alfred St hail 'n' ride",, -16.930825, 145.744463,1,https://translink.com.au/stop/750529/gtfs/,0,,
750530,750530,"Mann St near Vivian St hail 'n' ride",, -16.930143, 145.753263,1,https://translink.com.au/stop/750530/gtfs/,0,,
750531,750531,"Toogood Rd near Windarra St hail 'n' ride",, -16.956436, 145.741108,2,https://translink.com.au/stop/750531/gtfs/,0,,
750532,750532,"Bruce Hwy near Toogood Rd hail 'n' ride",, -16.949824, 145.742327,1,https://translink.com.au/stop/750532/gtfs/,0,,
750534,750534,"George Cannon Dr near Booyong Dr hail 'n' ride",, -16.984319, 145.740155,2,https://translink.com.au/stop/750534/gtfs/,0,,
750535,750535,"Golden Grove Road at Robert Road",, -17.003950, 145.740566,2,https://translink.com.au/stop/750535/gtfs/,0,,
750536,750536,"Petersen Rd near Farmer St hail 'n' ride",, -17.029899, 145.748275,3,https://translink.com.au/stop/750536/gtfs/,0,,
750537,750537,"Farmer St near Gattenby St hail 'n' ride",, -17.029087, 145.747089,3,https://translink.com.au/stop/750537/gtfs/,0,,
750538,750538,"Farmer St near Shaft St hail 'n' ride",, -17.027557, 145.744922,3,https://translink.com.au/stop/750538/gtfs/,0,,
750539,750539,"Robert Rd near Herald St hail 'n' ride",, -17.006567, 145.730265,3,https://translink.com.au/stop/750539/gtfs/,0,,
750540,750540,"George Cannon Drive at Benjamin Street",, -16.978230, 145.741304,2,https://translink.com.au/stop/750540/gtfs/,0,,
750541,750541,"Varley St at Nancy Street",, -16.817400, 145.720224,3,https://translink.com.au/stop/750541/gtfs/,0,,
750542,750542,"Varley St near Grason St hail 'n' ride",, -16.813990, 145.720530,3,https://translink.com.au/stop/750542/gtfs/,0,,
750569,750569,"Anne St at Gavin St hail 'n' ride",, -16.825557, 145.691185,3,https://translink.com.au/stop/750569/gtfs/,0,,
750631,750631,"Draper St at Hartley St",, -16.931431, 145.772528,1,https://translink.com.au/stop/750631/gtfs/,0,,
750638,750638,"Captain Cook Highway at Clifton Road",, -16.772802, 145.674215,5,https://translink.com.au/stop/750638/gtfs/,0,,
750639,750639,"Captain Cook Highway at Clifton Road",, -16.772572, 145.674238,5,https://translink.com.au/stop/750639/gtfs/,0,,
750640,750640,"Reservoir Road at Pease Street",, -16.918218, 145.738909,1,https://translink.com.au/stop/750640/gtfs/,0,,
750645,750645,"Windarra St at Jean Close",, -16.966440, 145.741280,2,https://translink.com.au/stop/750645/gtfs/,0,,
750646,750646,"Windarra St at Jean Close",, -16.966199, 145.741038,2,https://translink.com.au/stop/750646/gtfs/,0,,
750649,750649,"Buchan St near Kenny St hail 'n' ride",, -16.936873, 145.767595,1,https://translink.com.au/stop/750649/gtfs/,0,,
750651,750651,"Draper St at Hartley Street",, -16.931451, 145.772898,1,https://translink.com.au/stop/750651/gtfs/,0,,
750652,750652,"Kenny St near Owen Cl hail 'n' ride",, -16.934361, 145.771662,1,https://translink.com.au/stop/750652/gtfs/,0,,
750653,750653,"Johnson Rd near Fretwell Rd hail 'n' ride",, -16.994207, 145.746554,2,https://translink.com.au/stop/750653/gtfs/,0,,
750654,750654,"Fretwell Rd at Progress Road",, -16.994597, 145.743918,2,https://translink.com.au/stop/750654/gtfs/,0,,
750655,750655,"Fretwell Rd at Progress Road",, -16.994379, 145.744091,2,https://translink.com.au/stop/750655/gtfs/,0,,
750656,750656,"Johnson Rd near Fretwell Rd hail 'n' ride",, -16.993900, 145.746465,2,https://translink.com.au/stop/750656/gtfs/,0,,
750657,750657,"Raintrees Shopping Centre Stop A",, -16.925761, 145.739957,1,https://translink.com.au/stop/750657/gtfs/,0,place_raiint,
750703,750703,"McGregor Rd at  Smithfield Village Dr",, -16.821842, 145.702011,3,https://translink.com.au/stop/750703/gtfs/,0,,
750704,750704,"McGregor Rd at Smithfield Village Dr",, -16.822005, 145.701227,3,https://translink.com.au/stop/750704/gtfs/,0,,
750716,750716,"Anderson Rd near Loretta St (Coconut Village)",, -16.967477, 145.743657,2,https://translink.com.au/stop/750716/gtfs/,0,,
750717,750717,"Cottesloe Dr near Daytona St (Kewarra Beach) HnR",, -16.790705, 145.680962,4,https://translink.com.au/stop/750717/gtfs/,0,,
750718,750718,"Cedar Rd near Warren St hail 'n' ride",, -16.746350, 145.664881,5,https://translink.com.au/stop/750718/gtfs/,0,,
750720,750720,"Farmer St at Barney Street",, -17.030452, 145.740025,3,https://translink.com.au/stop/750720/gtfs/,0,,
750721,750721,"Raintrees Shopping Centre Stop B",, -16.925397, 145.740451,1,https://translink.com.au/stop/750721/gtfs/,0,,
750722,750722,"Michaelangelo Dr near Jungara Rd hail 'n' ride",, -16.906836, 145.693053,2,https://translink.com.au/stop/750722/gtfs/,0,,
750728,750728,"Smithfield Shopping Centre",, -16.838391, 145.692837,3,https://translink.com.au/stop/750728/gtfs/,0,,
750729,750729,"Wiseman Rd at Canecutter Road Park",, -17.025638, 145.729916,3,https://translink.com.au/stop/750729/gtfs/,0,,
750731,750731,"Stockland Earlville",, -16.944560, 145.738935,1,https://translink.com.au/stop/750731/gtfs/,0,,
750732,750732,"Redlynch Central Shopping Centre (Larsen St)",, -16.895139, 145.699438,2,https://translink.com.au/stop/750732/gtfs/,0,,
750747,750747,"Gavin St near Nina St hail 'n' ride",, -16.826545, 145.690900,3,https://translink.com.au/stop/750747/gtfs/,0,,
750748,750748,"Gavin St near Gillian St hail 'n' ride",, -16.826723, 145.690987,3,https://translink.com.au/stop/750748/gtfs/,0,,
place_cnsstn,,"Cairns City station (Lake Street)",, -16.920702, 145.774590,,,1,,
place_jcucns,,"James Cook University station (Cairns)",, -16.818238, 145.690961,,,1,,
place_raiint,,"Raintrees Shopping Centre interchange",, -16.925645, 145.740170,,,1,,
